$GPGGA,184050.84,3907.3839,N,12102.4772,W,1,05,1.8,00543,M,,,,*33
$GPRMC,184050.84,A,3907.3839,N,12102.4772,W,00.0,000.0,080301,15,E*54
$GPGSA,A,3,24,07,09,26,05,,,,,,,,03.6,01.8,03.1*05
$PMGNST,02.12,3,T,534,05.0,+03327,00*40
$GPGLL,3907.3839,N,12102.4771,W,184051.812,A*2D
$GPGGA,184051.81,3907.3839,N,12102.4771,W,1,05,1.8,00543,M,,,,*34
$GPRMC,184051.81,A,3907.3839,N,12102.4771,W,00.0,000.0,080301,15,E*53
$GPGSA,A,3,24,07,09,26,05,,,,,,,,03.6,01.8,03.1*05
$GPGSV,3,1,08,07,57,045,43,09,48,303,48,04,44,144,,02,39,092,*7F
$GPGSV,3,2,08,24,18,178,44,26,17,230,41,05,13,292,43,08,01,147,*75
$GPGSV,3,3,08,,,,,,,,,,,,,,,,*71
$GPGLL,3907.3840,N,12102.4770,W,184052.812,A*21
$GPGGA,184050.84,3907.3839,N,12102.4772,W,1,05,1.8,00543,M,,,,*33
$GPRMC,184050.84,A,3907.3839,N,12102.4772,W,00.0,000.0,080301,15,E*54
$GPGSA,A,3,24,07,09,26,05,,,,,,,,03.6,01.8,03.1*05
$PMGNST,02.12,3,T,534,05.0,+03327,00*40
$GPGLL,3907.3839,N,12102.4771,W,184051.812,A*2D
$GPGGA,184051.81,3907.3839,N,12102.4771,W,1,05,1.8,00543,M,,,,*34
$GPRMC,184051.81,A,3907.3839,N,12102.4771,W,00.0,000.0,080301,15,E*53
$GPGSA,A,3,24,07,09,26,05,,,,,,,,03.6,01.8,03.1*05
$GPGSV,3,1,08,07,57,045,43,09,48,303,48,04,44,144,,02,39,092,*7F
$GPGSV,3,2,08,24,18,178,44,26,17,230,41,05,13,292,43,08,01,147,*75
$GPGSV,3,3,08,,,,,,,,,,,,,,,,*71
$GPGLL,3907.3840,N,12102.4770,W,184052.812,
$GPGGA,184050.84,3907.3839,N,12102.4772,W,1,05,1.8,00543,M,,,,*33
$GPRMC,184050.84,A,3907.3839,N,12102.4772,W,00.0,000.0,080301,15,E*54
$GPGSA,A,3,24,07,09,26,05,,,,,,,,03.6,01.8,03.1*05
$PMGNST,02.12,3,T,534,05.0,+03327,00*40
$GPGLL,3907.3839,N,12102.4771,W,184051.812,A*2D
$GPGGA,184051.81,3907.3839,N,12102.4771,W,1,05,1.8,00543,M,,,,*34
$GPRMC,184051.81,A,3907.3839,N,12102.4771,W,00.0,000.0,080301,15,E*53
$GPGSA,A,3,24,07,09,26,05,,,,,,,,03.6,01.8,03.1*05
$GPGSV,3,1,08,07,57,045,43,09,48,303,48,04,44,144,,02,39,092,*7F
$GPGSV,3,2,08,24,18,178,44,26,17,230,41,05,13,292,43,08,01,147,*75
$GPGSV,3,3,08,,,,,,,,,,,,,,,,*71
$GPGLL,3907.3840,N,12102.4770,W,184052.812,
$GPGGA,184050.84,3907.3839,N,12102.4772,W,1,05,1.8,00543,M,,,,*33
$GPRMC,184050.84,A,3907.3839,N,12102.4772,W,00.0,000.0,080301,15,E*54
$GPGSA,A,3,24,07,09,26,05,,,,,,,,03.6,01.8,03.1*05
$PMGNST,02.12,3,T,534,05.0,+03327,00*40
$GPGLL,3907.3839,N,12102.4771,W,184051.812,A*2D
$GPGGA,184051.81,3907.3839,N,12102.4771,W,1,05,1.8,00543,M,,,,*34
$GPRMC,184051.81,A,3907.3839,N,12102.4771,W,00.0,000.0,080301,15,E*53
$GPGSA,A,3,24,07,09,26,05,,,,,,,,03.6,01.8,03.1*05
$GPGSV,3,1,08,07,57,045,43,09,48,303,48,04,44,144,,02,39,092,*7F
$GPGSV,3,2,08,24,18,178,44,26,17,230,41,05,13,292,43,08,01,147,*75
$GPGSV,3,3,08,,,,,,,,,,,,,,,,*71
$GPGLL,3907.3840,N,12102.4770,W,184052.812,
$GPGGA,184050.84,3907.3839,N,12102.4772,W,1,05,1.8,00543,M,,,,*33
$GPRMC,184050.84,A,3907.3839,N,12102.4772,W,00.0,000.0,080301,15,E*54
$GPGSA,A,3,24,07,09,26,05,,,,,,,,03.6,01.8,03.1*05
$PMGNST,02.12,3,T,534,05.0,+03327,00*40
$GPGLL,3907.3839,N,12102.4771,W,184051.812,A*2D
$GPGGA,184051.81,3907.3839,N,12102.4771,W,1,05,1.8,00543,M,,,,*34
$GPRMC,184051.81,A,3907.3839,N,12102.4771,W,00.0,000.0,080301,15,E*53
$GPGSA,A,3,24,07,09,26,05,,,,,,,,03.6,01.8,03.1*05
$GPGSV,3,1,08,07,57,045,43,09,48,303,48,04,44,144,,02,39,092,*7F
$GPGSV,3,2,08,24,18,178,44,26,17,230,41,05,13,292,43,08,01,147,*75
$GPGSV,3,3,08,,,,,,,,,,,,,,,,*71
$GPGLL,3907.3840,N,12102.4770,W,184052.812,
$GPGGA,184050.84,3907.3839,N,12102.4772,W,1,05,1.8,00543,M,,,,*33
$GPRMC,184050.84,A,3907.3839,N,12102.4772,W,00.0,000.0,080301,15,E*54
$GPGSA,A,3,24,07,09,26,05,,,,,,,,03.6,01.8,03.1*05
$PMGNST,02.12,3,T,534,05.0,+03327,00*40
$GPGLL,3907.3839,N,12102.4771,W,184051.812,A*2D
$GPGGA,184051.81,3907.3839,N,12102.4771,W,1,05,1.8,00543,M,,,,*34
$GPRMC,184051.81,A,3907.3839,N,12102.4771,W,00.0,000.0,080301,15,E*53
$GPGSA,A,3,24,07,09,26,05,,,,,,,,03.6,01.8,03.1*05
$GPGSV,3,1,08,07,57,045,43,09,48,303,48,04,44,144,,02,39,092,*7F
$GPGSV,3,2,08,24,18,178,44,26,17,230,41,05,13,292,43,08,01,147,*75
$GPGSV,3,3,08,,,,,,,,,,,,,,,,*71
$GPGLL,3907.3840,N,12102.4770,W,184052.812,$GPGGA,184050.84,3907.3839,N,12102.4772,W,1,05,1.8,00543,M,,,,*33
$GPRMC,184050.84,A,3907.3839,N,12102.4772,W,00.0,000.0,080301,15,E*54
$GPGSA,A,3,24,07,09,26,05,,,,,,,,03.6,01.8,03.1*05
$PMGNST,02.12,3,T,534,05.0,+03327,00*40
$GPGLL,3907.3839,N,12102.4771,W,184051.812,A*2D
$GPGGA,184051.81,3907.3839,N,12102.4771,W,1,05,1.8,00543,M,,,,*34
$GPRMC,184051.81,A,3907.3839,N,12102.4771,W,00.0,000.0,080301,15,E*53
$GPGSA,A,3,24,07,09,26,05,,,,,,,,03.6,01.8,03.1*05
$GPGSV,3,1,08,07,57,045,43,09,48,303,48,04,44,144,,02,39,092,*7F
$GPGSV,3,2,08,24,18,178,44,26,17,230,41,05,13,292,43,08,01,147,*75
$GPGSV,3,3,08,,,,,,,,,,,,,,,,*71
$GPGLL,3907.3840,N,12102.4770,W,184052.812,$GPGGA,184050.84,3907.3839,N,12102.4772,W,1,05,1.8,00543,M,,,,*33
$GPRMC,184050.84,A,3907.3839,N,12102.4772,W,00.0,000.0,080301,15,E*54
$GPGSA,A,3,24,07,09,26,05,,,,,,,,03.6,01.8,03.1*05
$PMGNST,02.12,3,T,534,05.0,+03327,00*40
$GPGLL,3907.3839,N,12102.4771,W,184051.812,A*2D
$GPGGA,184051.81,3907.3839,N,12102.4771,W,1,05,1.8,00543,M,,,,*34
$GPRMC,184051.81,A,3907.3839,N,12102.4771,W,00.0,000.0,080301,15,E*53
$GPGSA,A,3,24,07,09,26,05,,,,,,,,03.6,01.8,03.1*05
$GPGSV,3,1,08,07,57,045,43,09,48,303,48,04,44,144,,02,39,092,*7F
$GPGSV,3,2,08,24,18,178,44,26,17,230,41,05,13,292,43,08,01,147,*75
$GPGSV,3,3,08,,,,,,,,,,,,,,,,*71
$GPGLL,3907.3840,N,12102.4770,W,184052.812,$GPGGA,184050.84,3907.3839,N,12102.4772,W,1,05,1.8,00543,M,,,,*33
$GPRMC,184050.84,A,3907.3839,N,12102.4772,W,00.0,000.0,080301,15,E*54
$GPGSA,A,3,24,07,09,26,05,,,,,,,,03.6,01.8,03.1*05
$PMGNST,02.12,3,T,534,05.0,+03327,00*40
$GPGLL,3907.3839,N,12102.4771,W,184051.812,A*2D
$GPGGA,184051.81,3907.3839,N,12102.4771,W,1,05,1.8,00543,M,,,,*34
$GPRMC,184051.81,A,3907.3839,N,12102.4771,W,00.0,000.0,080301,15,E*53
$GPGSA,A,3,24,07,09,26,05,,,,,,,,03.6,01.8,03.1*05
$GPGSV,3,1,08,07,57,045,43,09,48,303,48,04,44,144,,02,39,092,*7F
$GPGSV,3,2,08,24,18,178,44,26,17,230,41,05,13,292,43,08,01,147,*75
$GPGSV,3,3,08,,,,,,,,,,,,,,,,*71
$GPGLL,3907.3840,N,12102.4770,W,184052.812,
$GPGGA,184050.84,3907.3839,N,12102.4772,W,1,05,1.8,00543,M,,,,*33
$GPRMC,184050.84,A,3907.3839,N,12102.4772,W,00.0,000.0,080301,15,E*54
$GPGSA,A,3,24,07,09,26,05,,,,,,,,03.6,01.8,03.1*05
$PMGNST,02.12,3,T,534,05.0,+03327,00*40
$GPGLL,3907.3839,N,12102.4771,W,184051.812,A*2D
$GPGGA,184051.81,3907.3839,N,12102.4771,W,1,05,1.8,00543,M,,,,*34
$GPRMC,184051.81,A,3907.3839,N,12102.4771,W,00.0,000.0,080301,15,E*53
$GPGSA,A,3,24,07,09,26,05,,,,,,,,03.6,01.8,03.1*05
$GPGSV,3,1,08,07,57,045,43,09,48,303,48,04,44,144,,02,39,092,*7F
$GPGSV,3,2,08,24,18,178,44,26,17,230,41,05,13,292,43,08,01,147,*75
$GPGSV,3,3,08,,,,,,,,,,,,,,,,*71
$GPGLL,3907.3840,N,12102.4770,W,184052.812,
$GPGGA,184050.84,3907.3839,N,12102.4772,W,1,05,1.8,00543,M,,,,*33
$GPRMC,184050.84,A,3907.3839,N,12102.4772,W,00.0,000.0,080301,15,E*54
$GPGSA,A,3,24,07,09,26,05,,,,,,,,03.6,01.8,03.1*05
$PMGNST,02.12,3,T,534,05.0,+03327,00*40
$GPGLL,3907.3839,N,12102.4771,W,184051.812,A*2D
$GPGGA,184051.81,3907.3839,N,12102.4771,W,1,05,1.8,00543,M,,,,*34
$GPRMC,184051.81,A,3907.3839,N,12102.4771,W,00.0,000.0,080301,15,E*53
$GPGSA,A,3,24,07,09,26,05,,,,,,,,03.6,01.8,03.1*05
$GPGSV,3,1,08,07,57,045,43,09,48,303,48,04,44,144,,02,39,092,*7F
$GPGSV,3,2,08,24,18,178,44,26,17,230,41,05,13,292,43,08,01,147,*75
$GPGSV,3,3,08,,,,,,,,,,,,,,,,*71
$GPGLL,3907.3840,N,12102.4770,W,184052.812,
$GPGGA,184050.84,3907.3839,N,12102.4772,W,1,05,1.8,00543,M,,,,*33
$GPRMC,184050.84,A,3907.3839,N,12102.4772,W,00.0,000.0,080301,15,E*54
$GPGSA,A,3,24,07,09,26,05,,,,,,,,03.6,01.8,03.1*05
$PMGNST,02.12,3,T,534,05.0,+03327,00*40
$GPGLL,3907.3839,N,12102.4771,W,184051.812,A*2D
$GPGGA,184051.81,3907.3839,N,12102.4771,W,1,05,1.8,00543,M,,,,*34
$GPRMC,184051.81,A,3907.3839,N,12102.4771,W,00.0,000.0,080301,15,E*53
$GPGSA,A,3,24,07,09,26,05,,,,,,,,03.6,01.8,03.1*05
$GPGSV,3,1,08,07,57,045,43,09,48,303,48,04,44,144,,02,39,092,*7F
$GPGSV,3,2,08,24,18,178,44,26,17,230,41,05,13,292,43,08,01,147,*75
$GPGSV,3,3,08,,,,,,,,,,,,,,,,*71
$GPGLL,3907.3840,N,12102.4770,W,184052.812,$GPGGA,184050.84,3907.3839,N,12102.4772,W,1,05,1.8,00543,M,,,,*33
$GPRMC,184050.84,A,3907.3839,N,12102.4772,W,00.0,000.0,080301,15,E*54
$GPGSA,A,3,24,07,09,26,05,,,,,,,,03.6,01.8,03.1*05
$PMGNST,02.12,3,T,534,05.0,+03327,00*40
$GPGLL,3907.3839,N,12102.4771,W,184051.812,A*2D
$GPGGA,184051.81,3907.3839,N,12102.4771,W,1,05,1.8,00543,M,,,,*34
$GPRMC,184051.81,A,3907.3839,N,12102.4771,W,00.0,000.0,080301,15,E*53
$GPGSA,A,3,24,07,09,26,05,,,,,,,,03.6,01.8,03.1*05
$GPGSV,3,1,08,07,57,045,43,09,48,303,48,04,44,144,,02,39,092,*7F
$GPGSV,3,2,08,24,18,178,44,26,17,230,41,05,13,292,43,08,01,147,*75
$GPGSV,3,3,08,,,,,,,,,,,,,,,,*71
$GPGLL,3907.3840,N,12102.4770,W,184052.812,$GPGGA,184050.84,3907.3839,N,12102.4772,W,1,05,1.8,00543,M,,,,*33
$GPRMC,184050.84,A,3907.3839,N,12102.4772,W,00.0,000.0,080301,15,E*54
$GPGSA,A,3,24,07,09,26,05,,,,,,,,03.6,01.8,03.1*05
$PMGNST,02.12,3,T,534,05.0,+03327,00*40
$GPGLL,3907.3839,N,12102.4771,W,184051.812,A*2D
$GPGGA,184051.81,3907.3839,N,12102.4771,W,1,05,1.8,00543,M,,,,*34
$GPRMC,184051.81,A,3907.3839,N,12102.4771,W,00.0,000.0,080301,15,E*53
$GPGSA,A,3,24,07,09,26,05,,,,,,,,03.6,01.8,03.1*05
$GPGSV,3,1,08,07,57,045,43,09,48,303,48,04,44,144,,02,39,092,*7F
$GPGSV,3,2,08,24,18,178,44,26,17,230,41,05,13,292,43,08,01,147,*75
$GPGSV,3,3,08,,,,,,,,,,,,,,,,*71
$GPGLL,3907.3840,N,12102.4770,W,184052.812,
$GPGGA,184050.84,3907.3839,N,12102.4772,W,1,05,1.8,00543,M,,,,*33
$GPRMC,184050.84,A,3907.3839,N,12102.4772,W,00.0,000.0,080301,15,E*54
$GPGSA,A,3,24,07,09,26,05,,,,,,,,03.6,01.8,03.1*05
$PMGNST,02.12,3,T,534,05.0,+03327,00*40
$GPGLL,3907.3839,N,12102.4771,W,184051.812,A*2D
$GPGGA,184051.81,3907.3839,N,12102.4771,W,1,05,1.8,00543,M,,,,*34
$GPRMC,184051.81,A,3907.3839,N,12102.4771,W,00.0,000.0,080301,15,E*53
$GPGSA,A,3,24,07,09,26,05,,,,,,,,03.6,01.8,03.1*05
$GPGSV,3,1,08,07,57,045,43,09,48,303,48,04,44,144,,02,39,092,*7F
$GPGSV,3,2,08,24,18,178,44,26,17,230,41,05,13,292,43,08,01,147,*75
$GPGSV,3,3,08,,,,,,,,,,,,,,,,*71
$GPGLL,3907.3840,N,12102.4770,W,184052.812,